[{
		"start" : "2011-04-11 20:30:47",
		"point" : {
			"lat" : 29.35,
			"lon" : 106.33
		},
		"title" : "CHEE7OL",
		"options" : {
			"description" : "CHEE7OL",
			"infoHtml" : "豆瓣神图!!!! //@吕震生:教主我崇拜你很久了！！！！！！！！！！！！！！！！！！！！"
		}
	}, {
		"start" : "2011-04-11 20:30:47",
		"point" : {
			"lat" : 38.02,
			"lon" : 114.30
		},
		"title" : "leon1892",
		"options" : {
			"description" : "leon1892",
			"infoHtml" : "教主，我是你忠实粉，一直在模仿，从未能超越！！！//@冷面傲娇曹不能:教主！！！！！！！！！仙福同享寿与天齐！！！！！！！！！！！！"
		}
	}, {
		"start" : "2011-04-11 20:30:41",
		"point" : {
			"lat" : 34.17,
			"lon" : 108.57
		},
		"title" : "听猫",
		"options" : {
			"description" : "听猫",
			"infoHtml" : "哇咔咔！！！！！！！！！！！！！！咆哮教主！！！！！！！！！！！！你居然选在今天开围脖！！！！！！让我情何以堪！！！！！！！！"
		}
	}, {
		"start" : "2011-04-11 20:30:41",
		"point" : {
			"lat" : 1.292,
			"lon" : 103.86
		},
		"title" : "狮子Jolin",
		"options" : {
			"description" : "狮子Jolin",
			"infoHtml" : "完蛋了，估计今天下午会有个全民咆哮潮爆发！！！！！！！！！！ //@猪蹄蹄beta:教主你来了！！！！！！！！！！！！！！！！！！！！！！！！！！！！！！！！！！！！！！！！"
		}
	}, {
		"start" : "2011-04-11 20:30:43",
		"point" : {
			"lat" : 39.55,
			"lon" : 116.24
		},
		"title" : "青叶s",
		"options" : {
			"description" : "青叶s",
			"infoHtml" : "好！！！一定交流！！！！"
		}
	}, {
		"start" : "2011-04-11 20:30:40",
		"point" : {
			"lat" : 23.08,
			"lon" : 113.14
		},
		"title" : "李呆",
		"options" : {
			"description" : "李呆",
			"infoHtml" : "你好！！！！！！！！！！！！我是你的偶像！！！！！！哦不！！！你是我的偶像！！！！！"
		}
	}, {
		"start" : "2011-04-11 20:30:38",
		"point" : {
			"lat" : 29.35,
			"lon" : 106.33
		},
		"title" : "Lilith丶霏",
		"options" : {
			"description" : "Lilith丶霏",
			"infoHtml" : "教主威武！！！！！！！！！！！！！！！！！！！！！！！！我們想您了！！！！！！！！！！！！！！！ //@晓雨Rainie:教主出现了！！！！！！！！！！！！！！！！！！"
		}
	}, {
		"start" : "2011-04-11 20:30:33",
		"point" : {
			"lat" : 32.03,
			"lon" : 118.46
		},
		"title" : "Jro伊",
		"options" : {
			"description" : "Jro伊",
			"infoHtml" : "哇，咆哮帝趁势出击了么！有木有，有木有！！！ //@芃蒿:午饭吃了，是不是！！！！！！！！！！！！吃的很饱，有木有！！！！！！！！！！！！！！！！！！！！！！！！！！！！！！！"
		}
	}, {
		"start" : "2011-04-11 20:30:31",
		"point" : {
			"lat" : 39.55,
			"lon" : 116.24
		},
		"title" : "刘大洋_",
		"options" : {
			"description" : "刘大洋_",
			"infoHtml" : "我的耳朵[衰]  //@流天尊:马景涛有木有！！！！！！！！ //@叶千河:教主！！！！！！"
		}
	}, {
		"start" : "2011-04-11 20:30:29",
		"point" : {
			"lat" : 39.55,
			"lon" : 116.24
		},
		"title" : "楊砥",
		"options" : {
			"description" : "楊砥",
			"infoHtml" : "过于平静的开博"
		}
	}, {
		"start" : "2011-04-11 20:30:13",
		"point" : {
			"lat" : 29.35,
			"lon" : 106.33
		},
		"title" : "Comet和艾露弹吉他",
		"options" : {
			"description" : "Comet和艾露弹吉他",
			"infoHtml" : "咆哮帝来了！！！有木有啊有木有！！！！"
		}
	}, {
		"start" : "2011-04-11 20:30:16",
		"point" : {
			"lat" : 30.35,
			"lon" : 114.17
		},
		"title" : "Rily",
		"options" : {
			"description" : "Rily",
			"infoHtml" : "@无奈的三次元 咆哮蜀黍来了！"
		}
	}, {
		"start" : "2011-04-11 20:30:09",
		"point" : {
			"lat" : 23.08,
			"lon" : 113.14
		},
		"title" : "旗木啊",
		"options" : {
			"description" : "旗木啊",
			"infoHtml" : "教主V5！！！！前100啊...有木有！！！！！！！！！"
		}
	}, {
		"start" : "2011-04-11 20:29:57",
		"point" : {
			"lat" : 28.40,
			"lon" : 115.55
		},
		"title" : "质点运动学",
		"options" : {
			"description" : "质点运动学",
			"infoHtml" : "转发微博。"
		}
	}, {
		"start" : "2011-04-11 20:29:53",
		"point" : {
			"lat" : 25.04,
			"lon" : 102.42
		},
		"title" : "毕妍洁",
		"options" : {
			"description" : "毕妍洁",
			"infoHtml" : "有微博的马哥你们伤不起，有木有！！！！！！！！！！！！！！！！！！！！！！！！！！！！！！！！！！！！！！！！！！！！！！！！！！！！！！！！！！！！！！！！！！！！！！！！！！！！！！！！！！！！！！！！！"
		}
	}, {
		"start" : "2011-04-11 20:29:50",
		"point" : {
			"lat" : 39.55,
			"lon" : 116.24
		},
		"title" : "Magic_jay",
		"options" : {
			"description" : "Magic_jay",
			"infoHtml" : "//@猪蹄蹄beta:教主你来了！！！！！！！！！！！！！！！！！！！！！！！！！！！！！！！！！！！！！！！！"
		}
	}, {
		"start" : "2011-04-11 20:29:42",
		"point" : {
			"lat" : 39.55,
			"lon" : 116.24
		},
		"title" : "Me_心若止水",
		"options" : {
			"description" : "Me_心若止水",
			"infoHtml" : "小马哥也上微博啦。。"
		}
	}, {
		"start" : "2011-04-11 20:29:39",
		"point" : {
			"lat" : 30.35,
			"lon" : 114.17
		},
		"title" : "mahamud",
		"options" : {
			"description" : "mahamud",
			"infoHtml" : "哈哈！看评论笑死了！！！ //@芃蒿:午饭吃了，是不是！！！！！！！！！！！！吃的很饱，有木有！！！！！！！！！！！！！！！！！！！！！！！！！！！！！！！"
		}
	}, {
		"start" : "2011-04-11 20:29:36",
		"point" : {
			"lat" : 41.48,
			"lon" : 123.25
		},
		"title" : "戈盒子2011求经济独立",
		"options" : {
			"description" : "戈盒子2011求经济独立",
			"infoHtml" : "有木有啊！！！！ //@孙小槑:教主！！！！！！！！！！！！！！！！！！ //@破车推荐:新浪是真牛逼啊！//@陈苍苍arranya:教主！！！！！！！！！！！！！！！ //"
		}
	}, {
		"start" : "2011-04-11 20:29:37",
		"point" : {
			"lat" : 36.03,
			"lon" : 120.18
		},
		"title" : "米米米米米二",
		"options" : {
			"description" : "米米米米米二",
			"infoHtml" : "教主好！！！！！！！！！！！！！！！！！！"
		}
	}, {
		"start" : "2011-04-11 20:29:38",
		"point" : {
			"lat" : 30.35,
			"lon" : 114.17
		},
		"title" : "橙小色",
		"options" : {
			"description" : "橙小色",
			"infoHtml" : "教主！！！！！你好吗！！！！我看乃的片子长大的！！！我的耳朵和视力都还依然坚挺哟！！！！！！"
		}
	}, {
		"start" : "2011-04-11 20:29:33",
		"point" : {
			"lat" : 31.14,
			"lon" : 121.29
		},
		"title" : "ciel",
		"options" : {
			"description" : "ciel",
			"infoHtml" : "矮油！！！！！！！！！！！！！！！！！！！！！！！！！！ //@猪蹄蹄beta:教主你来了！！！！！！！！！！！！！！！！！！！！！！！！！！！！！！！！！！！！！！！！"
		}
	}, {
		"start" : "2011-04-11 20:29:32",
		"point" : {
			"lat" : 29.35,
			"lon" : 106.33
		},
		"title" : "晓雨Rainie",
		"options" : {
			"description" : "晓雨Rainie",
			"infoHtml" : "教主出现了！！！！！！！！！！！！！！！！！！"
		}
	}, {
		"start" : "2011-04-11 20:29:31",
		"point" : {
			"lat" : 39.55,
			"lon" : 116.24
		},
		"title" : "二价铁离子",
		"options" : {
			"description" : "二价铁离子",
			"infoHtml" : "同问好！！！！！！！！ //@我来我征服:问教主好！！！！！ //@猪蹄蹄beta:教主你来了！！！！！！！！！！！！！！！！！！！！！！！！！！！！！！！！！！！！！！！！"
		}
	}, {
		"start" : "2011-04-11 20:29:23",
		"point" : {
			"lat" : 23.08,
			"lon" : 113.14
		},
		"title" : "抹茶芄子",
		"options" : {
			"description" : "抹茶芄子",
			"infoHtml" : "参拜教主！！！！[咆哮] [咆哮] [咆哮]"
		}
	}, {
		"start" : "2011-04-11 20:29:38",
		"point" : {
			"lat" : 23.08,
			"lon" : 113.14
		},
		"title" : "only修",
		"options" : {
			"description" : "only修",
			"infoHtml" : "教主V5//@猪蹄蹄beta:教主你来了！！！！！！！！！！！！！！！！！！！！！！！！！！！！！！！！！！！！！！！！"
		}
	}, {
		"start" : "2011-04-11 20:29:21",
		"point" : {
			"lat" : 38.02,
			"lon" : 114.30
		},
		"title" : "刷屏利器曹不能",
		"options" : {
			"description" : "刷屏利器曹不能",
			"infoHtml" : "教主！！！！！！！！！仙福同享寿与天齐！！！！！！！！！！！！"
		}
	}, {
		"start" : "2011-04-11 20:29:19",
		"point" : {
			"lat" : 39.55,
			"lon" : 116.24
		},
		"title" : "月亮骑士8754",
		"options" : {
			"description" : "月亮骑士8754",
			"infoHtml" : "有木有！！！！！！有木有！！！！！！！！！！！！！"
		}
	}, {
		"start" : "2011-04-11 20:29:14",
		"point" : {
			"lat" : 29.35,
			"lon" : 106.33
		},
		"title" : "流天尊",
		"options" : {
			"description" : "流天尊",
			"infoHtml" : "马景涛有木有！！！！！！！！ //@叶千河:教主！！！！！！"
		}
	}, {
		"start" : "2011-04-11 20:29:14",
		"point" : {
			"lat" : 28.01,
			"lon" : 120.39
		},
		"title" : "whitefifth",
		"options" : {
			"description" : "whitefifth",
			"infoHtml" : "教主你好！！！！！！！"
		}
	}, {
		"start" : "2011-04-11 20:29:12",
		"point" : {
			"lat" : 23.08,
			"lon" : 113.14
		},
		"title" : "May的七月",
		"options" : {
			"description" : "May的七月",
			"infoHtml" : "前五十！！！！！！！！有木有！！！！！！！！！！！！"
		}
	}, {
		"start" : "2011-04-11 20:29:11",
		"point" : {
			"lat" : 39.55,
			"lon" : 116.24
		},
		"title" : "2猪姑娘",
		"options" : {
			"description" : "2猪姑娘",
			"infoHtml" : "奔走相告！！！ //@猪蹄蹄beta:教主你来了！！！！！！！！！！！！！！！！！！！！！！！！！！！！！！！！！！！！！！！！"
		}
	}, {
		"start" : "2011-04-11 20:29:09",
		"point" : {
			"lat" : 39.55,
			"lon" : 116.24
		},
		"title" : "我来我征服",
		"options" : {
			"description" : "我来我征服",
			"infoHtml" : "问教主好！！！！！ //@猪蹄蹄beta:教主你来了！！！！！！！！！！！！！！！！！！！！！！！！！！！！！！！！！！！！！！！！"
		}
	}, {
		"start" : "2011-04-11 20:28:39",
		"point" : {
			"lat" : 39.55,
			"lon" : 116.24
		},
		"title" : "W小勋",
		"options" : {
			"description" : "W小勋",
			"infoHtml" : "快快快!!!来了来了来了!!!!!苍天啊大地啊!!!!!!大家可以跟他交流了!!!!伤不起啊!!!!!有模有有没有啊!!!!!!!!!!!!!!!!@青叶s !!!@欧阳玺瑙 !!!!!!!@becky9210 !!!!!!!!!!"
		}
	}, {
		"start" : "2011-04-11 20:28:41",
		"point" : {
			"lat" : 39.55,
			"lon" : 116.24
		},
		"title" : "kendy_sama",
		"options" : {
			"description" : "kendy_sama",
			"infoHtml" : "鼓掌，教主来视察工作了！!! //@破车推荐:新浪是真牛逼啊！//@陈苍苍arranya:教主！！！！！！！！！！！！！！！ //"
		}
	}, {
		"start" : "2011-04-11 20:28:39",
		"point" : {
			"lat" : 31.14,
			"lon" : 121.29
		},
		"title" : "从头开始的女圣斗士",
		"options" : {
			"description" : "从头开始的女圣斗士",
			"infoHtml" : "我也是咆哮党！！！！！！！！！！！！！！！！！！！ //@猪蹄蹄beta:教主你来了！！！！！！！！！！！！！！！！！！！！！！！！！！！！！！！！！！！！！！！！"
		}
	}, {
		"start" : "2011-04-11 20:28:37",
		"point" : {
			"lat" : 29.35,
			"lon" : 106.33
		},
		"title" : "一根苇草",
		"options" : {
			"description" : "一根苇草",
			"infoHtml" : "教主！！！！！！！！！！！！！"
		}
	}, {
		"start" : "2011-04-11 20:28:34",
		"point" : {
			"lat" : 39.55,
			"lon" : 116.24
		},
		"title" : "泡芙二妹",
		"options" : {
			"description" : "泡芙二妹",
			"infoHtml" : "教主你怎么才来！！！！！！！！！！！！！！！！！！！！！！！！！！！！ //@猪蹄蹄beta:教主你来了！！！！！！！！！！！！！！！！！！！！！！！！！！！！！！！！！！！！！！！！"
		}
	}, {
		"start" : "2011-04-11 20:28:34",
		"point" : {
			"lat" : 39.55,
			"lon" : 116.24
		},
		"title" : "管着么_",
		"options" : {
			"description" : "管着么_",
			"infoHtml" : "都咆哮起来"
		}
	}, {
		"start" : "2011-04-11 20:28:35",
		"point" : {
			"lat" : 30.01,
			"lon" : 122.06
		},
		"title" : "电解饱和绿子溶液",
		"options" : {
			"description" : "电解饱和绿子溶液",
			"infoHtml" : "教主你来了！！！！！！！！！！！！！！！！！！！！！！ //@猪蹄蹄beta:教主你来了！！！！！！！！！！！！！！！！！！！！！！！！！！！！！！！！！！！！！！！！"
		}
	}, {
		"start" : "2011-04-11 20:28:33",
		"point" : {
			"lat" : 33.30,
			"lon" : 119.09
		},
		"title" : "女侠汤欢喜",
		"options" : {
			"description" : "女侠汤欢喜",
			"infoHtml" : "是教主！！！"
		}
	}, {
		"start" : "2011-04-11 20:28:32",
		"point" : {
			"lat" : 30.16,
			"lon" : 120.10
		},
		"title" : "大众表妹喵喵喵",
		"options" : {
			"description" : "大众表妹喵喵喵",
			"infoHtml" : "教主啊！！！！你来了啊！！！！弟兄们等候多时啊！！！！不吃饭等你有木有！！！！边等边咆哮有木有！！！！你说有还是木有！！！！"
		}
	}, {
		"start" : "2011-04-11 20:28:31",
		"point" : {
			"lat" : 39.55,
			"lon" : 116.24
		},
		"title" : "王栋tony",
		"options" : {
			"description" : "王栋tony",
			"infoHtml" : "教主驾到"
		}
	}, {
		"start" : "2011-04-11 20:28:23",
		"point" : {
			"lat" : 40.72,
			"lon" : -74.00
		},
		"title" : "文明好少年是海绵宝宝",
		"options" : {
			"description" : "文明好少年是海绵宝宝",
			"infoHtml" : "您也来了！！！！！！！！！！！！！！！！！！！！！！ //@矾若Vera:教主！！！！！！ //@叶千河:教主！！！！！！"
		}
	}, {
		"start" : "2011-04-11 20:28:19",
		"point" : {
			"lat" : 28.01,
			"lon" : 120.39
		},
		"title" : "没谱少女",
		"options" : {
			"description" : "没谱少女",
			"infoHtml" : "咆哮马来了。。"
		}
	}, {
		"start" : "2011-04-11 20:28:15",
		"point" : {
			"lat" : 39.55,
			"lon" : 116.24
		},
		"title" : "沈灿烂",
		"options" : {
			"description" : "沈灿烂",
			"infoHtml" : "拜见教主 //@猪蹄蹄beta:教主你来了！！！！！！！！！！！！！！！！！！！！！！！！！！！！！！！！！！！！！！！！"
		}
	}, {
		"start" : "2011-04-11 20:28:13",
		"point" : {
			"lat" : 39.55,
			"lon" : 116.24
		},
		"title" : "爱亲的张庆鹏",
		"options" : {
			"description" : "爱亲的张庆鹏",
			"infoHtml" : "转发微博。"
		}
	}, {
		"start" : "2011-04-11 20:28:12",
		"point" : {
			"lat" : 39.55,
			"lon" : 116.24
		},
		"title" : "孙小槑",
		"options" : {
			"description" : "孙小槑",
			"infoHtml" : "教主！！！！！！！！！！！！！！！！！！ //@破车推荐:新浪是真牛逼啊！//@陈苍苍arranya:教主！！！！！！！！！！！！！！！ //"
		}
	}, {
		"start" : "2011-04-11 20:28:02",
		"point" : {
			"lat" : 39.55,
			"lon" : 116.24
		},
		"title" : "相位跃迁",
		"options" : {
			"description" : "相位跃迁",
			"infoHtml" : "教主万福！！！ //@猪蹄蹄beta:教主你来了！！！！！！！！！！！！！！！！！！！！！！！！！！！！！！！！！！！！！！！！"
		}
	}, {
		"start" : "2011-04-11 20:27:52",
		"point" : {
			"lat" : 30.42,
			"lon" : 111.17
		},
		"title" : "刘可乐_iso",
		"options" : {
			"description" : "刘可乐_iso",
			"infoHtml" : "火速围观！！！！！！！！！！！！！！！！ //@猪蹄蹄beta:教主你来了！！！！！！！！！！！！！！！！！！！！！！！！！！！！！！！！！！！！！！！！"
		}
	}, {
		"start" : "2011-04-11 20:27:53",
		"point" : {
			"lat" : 39.55,
			"lon" : 116.24
		},
		"title" : "李李濃RINO",
		"options" : {
			"description" : "李李濃RINO",
			"infoHtml" : "咆哮一个 //@猪蹄蹄beta: 教主你来了！！！！！！！！！！！！！！！！！！！！！！！！！！！！！！！！！！！！！！！！"
		}
	}, {
		"start" : "2011-04-11 20:27:49",
		"point" : {
			"lat" : 29.35,
			"lon" : 106.33
		},
		"title" : "济工",
		"options" : {
			"description" : "济工",
			"infoHtml" : "！！！！！！！！ //@猪蹄蹄beta:教主你来了！！！！！！！！！！！！！！！！！！！！！！！！！！！！！！！！！！！！！！！！"
		}
	}, {
		"start" : "2011-04-11 20:27:50",
		"point" : {
			"lat" : 30.40,
			"lon" : 104.04
		},
		"title" : "曉東--大美成都",
		"options" : {
			"description" : "曉東--大美成都",
			"infoHtml" : "哇。。哇。。哇。。 //@sunnycookies:大家快粉吧。。。这可是教主真人。"
		}
	}, {
		"start" : "2011-04-11 20:27:43",
		"point" : {
			"lat" : 29.35,
			"lon" : 106.33
		},
		"title" : "戴逸Evan",
		"options" : {
			"description" : "戴逸Evan",
			"infoHtml" : "用生命演戏的伟大演员！"
		}
	}, {
		"start" : "2011-04-11 20:27:38",
		"point" : {
			"lat" : 22.17,
			"lon" : 113.34
		},
		"title" : "小璐丫",
		"options" : {
			"description" : "小璐丫",
			"infoHtml" : "教主你好啊！！！！！！！！！！！！！！！！！"
		}
	}, {
		"start" : "2011-04-11 20:27:34",
		"point" : {
			"lat" : 35.28,
			"lon" : 149.12
		},
		"title" : "Fre5H",
		"options" : {
			"description" : "Fre5H",
			"infoHtml" : "教主粗现了！！！！！！！！！！！！ //@猪蹄蹄beta:教主你来了！！！！！！！！！！！！！！！！！！！！！！！！！！！！！！！！！！！！！！！！"
		}
	}, {
		"start" : "2011-04-11 20:27:31",
		"point" : {
			"lat" : 1.292,
			"lon" : 103.86
		},
		"title" : "你小妹死于拖延症",
		"options" : {
			"description" : "你小妹死于拖延症",
			"infoHtml" : "教主[威武] ！！！！！！！！！！！！！！！！！！！！ //@猪蹄蹄beta:教主你来了！！！！！！！！！！！！！！！！！！！！！！！！！！！！！！！！！！！！！！！！"
		}
	}, {
		"start" : "2011-04-11 20:27:28",
		"point" : {
			"lat" : 30.35,
			"lon" : 114.17
		},
		"title" : "耳朵向上earup",
		"options" : {
			"description" : "耳朵向上earup",
			"infoHtml" : "教主你好！！！！！！！！！！！！！！！！"
		}
	}, {
		"start" : "2011-04-11 20:27:17",
		"point" : {
			"lat" : 29.35,
			"lon" : 106.33
		},
		"title" : "SSS_Wang",
		"options" : {
			"description" : "SSS_Wang",
			"infoHtml" : "OH NO,教主真的来了，激动的要窒息了！！！！！！"
		}
	}, {
		"start" : "2011-04-11 20:27:17",
		"point" : {
			"lat" : 39.55,
			"lon" : 116.24
		},
		"title" : "宇宙小怪",
		"options" : {
			"description" : "宇宙小怪",
			"infoHtml" : "正主儿来了，各位咆哮体赶紧来膜拜！ //@猪蹄蹄beta:教主你来了！！！！！！！！！！！！！！！！！！！！！！！！！！！！！！！！！！！！！！！！"
		}
	}, {
		"start" : "2011-04-11 20:27:17",
		"point" : {
			"lat" : 29.35,
			"lon" : 106.33
		},
		"title" : "爱的战士_倪卖萌",
		"options" : {
			"description" : "爱的战士_倪卖萌",
			"infoHtml" : "教主你来了！！！！！！！！！！！！！！！！！！！！！！！"
		}
	}, {
		"start" : "2011-04-11 20:27:17",
		"point" : {
			"lat" : 28.41,
			"lon" : 121.27
		},
		"title" : "大表哥亚克西",
		"options" : {
			"description" : "大表哥亚克西",
			"infoHtml" : "教主也来微薄啦"
		}
	}, {
		"start" : "2011-04-11 20:27:16",
		"point" : {
			"lat" : 23.08,
			"lon" : 113.14
		},
		"title" : "泽叔爱google",
		"options" : {
			"description" : "泽叔爱google",
			"infoHtml" : "尼玛!!!!!!!!教主来了!!!!!!!"
		}
	}, {
		"start" : "2011-04-11 20:27:15",
		"point" : {
			"lat" : 31.34,
			"lon" : 120.18
		},
		"title" : "Breatrix",
		"options" : {
			"description" : "Breatrix",
			"infoHtml" : "[哈哈] [哈哈]咆哮教主开通微博 →_→[白眼]  //@猪蹄蹄beta:教主你来了！！！！！！！！！！！！！！！！！！！！！！！！！！！！！！！！！！！！！！！！"
		}
	}, {
		"start" : "2011-04-11 20:27:10",
		"point" : {
			"lat" : 43.52,
			"lon" : 126.33
		},
		"title" : "也听你说",
		"options" : {
			"description" : "也听你说",
			"infoHtml" : "咆哮帝现身·！~~~~！！！！！！！！！！！！！！！！！！！！！！！"
		}
	}, {
		"start" : "2011-04-11 20:27:03",
		"point" : {
			"lat" : 30.40,
			"lon" : 104.04
		},
		"title" : "苏拉拉钢之女通力応援",
		"options" : {
			"description" : "苏拉拉钢之女通力応援",
			"infoHtml" : "我擦啊啊啊！！！！！！膜拜教主啊教主头像美啊啊啊！！！！热烈期待教主各种实体咆哮啊啊啊啊啊啊啊！！！！！！！"
		}
	}, {
		"start" : "2011-04-11 20:26:54",
		"point" : {
			"lat" : 22.33,
			"lon" : 114.07
		},
		"title" : "GFever_大头",
		"options" : {
			"description" : "GFever_大头",
			"infoHtml" : "就差胡锦涛了是嘛 哈哈 //@nakin:！！！！！！！！！！！！！！！！！！！！ //@猪蹄蹄beta:教主你来了！！！！！！！！！！！！！！！！！！！！！！！！！！！！！！！！！！！！！！！！"
		}
	}, {
		"start" : "2011-04-11 20:26:53",
		"point" : {
			"lat" : 23.02,
			"lon" : 113.45
		},
		"title" : "YAMA丝嗒啤",
		"options" : {
			"description" : "YAMA丝嗒啤",
			"infoHtml" : "我觉得我快要窒息了！！！！！！！！！"
		}
	}, {
		"start" : "2011-04-11 20:26:49",
		"point" : {
			"lat" : 39.55,
			"lon" : 116.24
		},
		"title" : "破车推荐",
		"options" : {
			"description" : "破车推荐",
			"infoHtml" : "新浪是真牛逼啊！//@陈苍苍arranya:教主！！！！！！！！！！！！！！！ //"
		}
	}, {
		"start" : "2011-04-11 20:26:33",
		"point" : {
			"lat" : 39.55,
			"lon" : 116.24
		},
		"title" : "KI-_-I",
		"options" : {
			"description" : "KI-_-I",
			"infoHtml" : "教主！！！！！！！！！"
		}
	}, {
		"start" : "2011-04-11 20:26:30",
		"point" : {
			"lat" : 31.34,
			"lon" : 120.18
		},
		"title" : "小番茄不是萝莉",
		"options" : {
			"description" : "小番茄不是萝莉",
			"infoHtml" : "教主你来了！！！！！！！！！！！！！！！！！！！！！！！！！！！！！！！！！！！！！"
		}
	}, {
		"start" : "2011-04-11 20:26:28",
		"point" : {
			"lat" : 29.35,
			"lon" : 106.33
		},
		"title" : "鸡血槑阿矾",
		"options" : {
			"description" : "鸡血槑阿矾",
			"infoHtml" : "教主！！！！！！ //@叶千河:教主！！！！！！"
		}
	}, {
		"start" : "2011-04-11 20:26:21",
		"point" : {
			"lat" : 43.54,
			"lon" : 125.19
		},
		"title" : "wang淼淼",
		"options" : {
			"description" : "wang淼淼",
			"infoHtml" : "我们挚爱滴教主！！！！！！！！！！！！！！！咆哮！！！！"
		}
	}, {
		"start" : "2011-04-11 20:26:20",
		"point" : {
			"lat" : 39.55,
			"lon" : 116.24
		},
		"title" : "马老实",
		"options" : {
			"description" : "马老实",
			"infoHtml" : "参见教主！果断关注教主！！！！！"
		}
	}, {
		"start" : "2011-04-11 20:26:21",
		"point" : {
			"lat" : 39.55,
			"lon" : 116.24
		},
		"title" : "吕震生",
		"options" : {
			"description" : "吕震生",
			"infoHtml" : "教主我崇拜你很久了！！！！！！！！！！！！！！！！！！！！"
		}
	}, {
		"start" : "2011-04-11 20:26:15",
		"point" : {
			"lat" : 39.55,
			"lon" : 116.24
		},
		"title" : "sunnycookies",
		"options" : {
			"description" : "sunnycookies",
			"infoHtml" : "大家快粉吧。。。这可是教主真人。"
		}
	}, {
		"start" : "2011-04-11 20:26:14",
		"point" : {
			"lat" : 34.17,
			"lon" : 108.57
		},
		"title" : "Jm0iLy",
		"options" : {
			"description" : "Jm0iLy",
			"infoHtml" : "//@猪蹄蹄beta:教主你来了！！！！！！！！！！！！！！！！！！！！！！！！！！！！！！！！！！！！！！！！"
		}
	}, {
		"start" : "2011-04-11 20:26:13",
		"point" : {
			"lat" : 39.02,
			"lon" : 117.12
		},
		"title" : "sam邢",
		"options" : {
			"description" : "sam邢",
			"infoHtml" : "教主[威武] ！！！！！！！！！！！！！！！！！！！！！！！！！！！！！！！ //@猪蹄蹄beta:教主你来了！！！！！！！！！！！！！！！！！！！！！！！！！！！！！！！！！！！！！！！！"
		}
	}, {
		"start" : "2011-04-11 20:25:59",
		"point" : {
			"lat" : 30.16,
			"lon" : 120.10
		},
		"title" : "J_QuieT",
		"options" : {
			"description" : "J_QuieT",
			"infoHtml" : "啊哈哈哈哈！！！！ //@猪蹄蹄beta:教主你来了！！！！！！！！！！！！！！！！！！！！！！！！！！！！！！！！！！！！！！！！"
		}
	}, {
		"start" : "2011-04-11 20:25:46",
		"point" : {
			"lat" : 39.55,
			"lon" : 116.24
		},
		"title" : "彭小艾叫qq",
		"options" : {
			"description" : "彭小艾叫qq",
			"infoHtml" : "教主还是在豆瓣也开个号吧！！！！！！！！！！！！！！！！！！！！！！！！！！！！！！！！！！！！！！！！！！！！！！！！！！！！！ //@猪蹄蹄beta:教主你来了！！！！！！！！！！！！！！！！！！！！！！！！！！！！！！！！！！！！！！！！"
		}
	}, {
		"start" : "2011-04-11 20:25:39",
		"point" : {
			"lat" : 22.33,
			"lon" : 114.07
		},
		"title" : "DUAL",
		"options" : {
			"description" : "DUAL",
			"infoHtml" : "哇！！！！！！！！！！！！！！！！！！！！！！！！！！！！！！！！！！！！！！！！！！！！！！！！！！！！！教主万岁！！！！！！！！！！！！！！！！！！！！！"
		}
	}, {
		"start" : "2011-04-11 20:25:39",
		"point" : {
			"lat" : 39.55,
			"lon" : 116.24
		},
		"title" : "西西米露",
		"options" : {
			"description" : "西西米露",
			"infoHtml" : "咆哮吧~~~~~~！！！！"
		}
	}, {
		"start" : "2011-04-11 20:25:38",
		"point" : {
			"lat" : 39.55,
			"lon" : 116.24
		},
		"title" : "张二噶",
		"options" : {
			"description" : "张二噶",
			"infoHtml" : "转发微博。"
		}
	}, {
		"start" : "2011-04-11 20:25:38",
		"point" : {
			"lat" : 39.55,
			"lon" : 116.24
		},
		"title" : "叶千河",
		"options" : {
			"description" : "叶千河",
			"infoHtml" : "教主！！！！！！"
		}
	}, {
		"start" : "2011-04-11 20:25:32",
		"point" : {
			"lat" : 38.02,
			"lon" : 114.30
		},
		"title" : "何俊嵩elvissiren",
		"options" : {
			"description" : "何俊嵩elvissiren",
			"infoHtml" : "教主！！！！！！！！ //@猪蹄蹄beta:教主你来了！！！！！！！！！！！！！！！！！！！！！！！！！！！！！！！！！！！！！！！！"
		}
	}, {
		"start" : "2011-04-11 20:25:32",
		"point" : {
			"lat" : 40.72,
			"lon" : -74.00
		},
		"title" : "基里连科兔",
		"options" : {
			"description" : "基里连科兔",
			"infoHtml" : "教主来了！！！！内牛！！！！！"
		}
	}, {
		"start" : "2011-04-11 20:25:31",
		"point" : {
			"lat" : 29.35,
			"lon" : 106.33
		},
		"title" : "張叡叡",
		"options" : {
			"description" : "張叡叡",
			"infoHtml" : "迅速围观！！ //@猪蹄蹄beta:教主你来了！！！！！！！！！！！！！！！！！！！！！！！！！！！！！！！！！！！！！！！！"
		}
	}, {
		"start" : "2011-04-11 20:25:27",
		"point" : {
			"lat" : 30.16,
			"lon" : 120.10
		},
		"title" : "陈苍苍arranya",
		"options" : {
			"description" : "陈苍苍arranya",
			"infoHtml" : "教主！！！！！！！！！！！！！！！ //@猪蹄蹄beta:教主你来了！！！！！！！！！！！！！！！！！！！！！！！！！！！！！！！！！！！！！！！！"
		}
	}, {
		"start" : "2011-04-11 20:25:26",
		"point" : {
			"lat" : 24.56,
			"lon" : 118.36
		},
		"title" : "蔡程方",
		"options" : {
			"description" : "蔡程方",
			"infoHtml" : "景涛哥上来啦~难得哦！互关下，谢啦"
		}
	}, {
		"start" : "2011-04-11 20:25:12",
		"point" : {
			"lat" : 23.08,
			"lon" : 113.14
		},
		"title" : "芸爷",
		"options" : {
			"description" : "芸爷",
			"infoHtml" : "教主！！！！！！！！！//@猪蹄蹄beta:教主你来了！！！！！！！！！！！！！！！！！！！！！！！！！！！！！！！！！！！！！！！！"
		}
	}, {
		"start" : "2011-04-11 20:24:58",
		"point" : {
			"lat" : 29.35,
			"lon" : 106.33
		},
		"title" : "JazzJose1",
		"options" : {
			"description" : "JazzJose1",
			"infoHtml" : "“你缩，你到底爱不爱我，你缩你缩你缩啊！”"
		}
	}, {
		"start" : "2011-04-11 20:24:55",
		"point" : {
			"lat" : 38.55,
			"lon" : 121.36
		},
		"title" : "死磕青年猪蹄蹄",
		"options" : {
			"description" : "死磕青年猪蹄蹄",
			"infoHtml" : "教主你来了！！！！！！！！！！！！！！！！！！！！！！！！！！！！！！！！！！！！！！！！"
		}
	}, {
		"start" : "2011-04-11 20:24:42",
		"point" : {
			"lat" : 30.35,
			"lon" : 114.17
		},
		"title" : "flyliao",
		"options" : {
			"description" : "flyliao",
			"infoHtml" : "涛哥好。"
		}
	}, {
		"start" : "2011-04-11 20:22:51",
		"point" : {
			"lat" : 39.55,
			"lon" : 116.24
		},
		"title" : "贾郑婧",
		"options" : {
			"description" : "贾郑婧",
			"infoHtml" : "！！！！！！！！！！！！！！！！！！！！！！！！！，！！！，！，！！！！，！！！！！！！！！！！！，，，！！！！。！！！。"
		}
	}, {
		"start" : "2011-04-11 20:21:51",
		"point" : {
			"lat" : 31.52,
			"lon" : 117.17
		},
		"title" : "高巢",
		"options" : {
			"description" : "高巢",
			"infoHtml" : "咆哮教主！！！你好哇！！！！ //@何不言:欢迎咆哮帝，听着您老人家的咆哮长大[礼花]"
		}
	}, {
		"start" : "2011-04-11 20:20:33",
		"point" : {
			"lat" : 39.55,
			"lon" : 116.24
		},
		"title" : "大株株",
		"options" : {
			"description" : "大株株",
			"infoHtml" : "哈哈，最近有啥新戏呀，，"
		}
	}, {
		"start" : "2011-04-11 20:19:42",
		"point" : {
			"lat" : 39.55,
			"lon" : 116.24
		},
		"title" : "何不言",
		"options" : {
			"description" : "何不言",
			"infoHtml" : "欢迎咆哮帝，听着您老人家的咆哮长大[礼花]"
		}
	}, {
		"start" : "2011-04-11 18:05:59",
		"point" : {
			"lat" : 39.55,
			"lon" : 116.24
		},
		"title" : "马景涛_",
		"options" : {
			"description" : "马景涛_",
			"infoHtml" : "大家好，我是马景涛，在这里，大家真诚交流！"
		}
	}
] 